[
    {
        "title": "Samsung Galaxy S9",
        "description": "A brand new, sealed Lilac Purple Verizon Global Unlocked Galaxy S9 by Samsung. This is an upgrade. Clean ESN and activation ready.",
        "address_line_1": "House no. 12, Fayzabad",
        "address_line_2": "House no. 12, Fayzabad",
        "city": "Fayzabad",
        "state_id": "3901",
        "zipcode": "675885",
        "country_id": "1",
        "user_id": "3871",
        "features": "Samsung Exynos",
        "status": "Disable",
        "latitude": "30.951329",
        "longitude": "76.514127"
    },
    {
        "title": "Apple iPhone X",
        "description": "A brand new, sealed Lilac Purple Verizon Global Unlocked Galaxy S9 by Samsung. This is an upgrade. Clean ESN and activation ready.",
        "address_line_1": "House no. 12, Rāghistān",
        "address_line_2": "House no. 12, Rāghistān",
        "city": "Rāghistān",
        "state_id": "3901",
        "zipcode": "675885",
        "country_id": "1",
        "user_id": "3871",
        "features": "Samsung Exynos",
        "status": "Disable",
        "latitude": "30.951329",
        "longitude": "76.514127"
    },
    {
        "title": "Apple iPhone X",
        "description": "A brand new, sealed Lilac Purple Verizon Global Unlocked Galaxy S9 by Samsung. This is an upgrade. Clean ESN and activation ready.",
        "address_line_1": "House no. 12, Fayzabad",
        "address_line_2": "House no. 12, Fayzabad",
        "city": "Fayzabad",
        "state_id": "3901",
        "zipcode": "675885",
        "country_id": "1",
        "user_id": "3871",
        "features": "Samsung Exynos",
        "status": "Disable",
        "latitude": "30.951329",
        "longitude": "76.514127"
    },
    {
        "title": "Apple iPhone X",
        "description": "A brand new, sealed Lilac Purple Verizon Global Unlocked Galaxy S9 by Samsung. This is an upgrade. Clean ESN and activation ready.",
        "address_line_1": "House no. 12, Fayzabad",
        "address_line_2": "House no. 12, Fayzabad",
        "city": "Fayzabad",
        "state_id": "3901",
        "zipcode": "675885",
        "country_id": "1",
        "user_id": "3871",
        "features": "Samsung Exynos",
        "status": "Disable",
        "latitude": "30.951329",
        "longitude": "76.514127"
    },
    {
        "title": "Apple iPhone X",
        "description": "A brand new, sealed Lilac Purple Verizon Global Unlocked Galaxy S9 by Samsung. This is an upgrade. Clean ESN and activation ready.",
        "address_line_1": "House no. 12, Fayzabad",
        "address_line_2": "House no. 12, Fayzabad",
        "city": "Fayzabad",
        "state_id": "3901",
        "zipcode": "675885",
        "country_id": "1",
        "user_id": "3871",
        "features": "Samsung Exynos",
        "status": "Disable",
        "latitude": "30.951329",
        "longitude": "76.514127"
    },
    {
        "title": "Apple iPhone X",
        "description": "A brand new, sealed Lilac Purple Verizon Global Unlocked Galaxy S9 by Samsung. This is an upgrade. Clean ESN and activation ready.",
        "address_line_1": "House no. 12, Fayzabad",
        "address_line_2": "House no. 12, Fayzabad",
        "city": "Fayzabad",
        "state_id": "3901",
        "zipcode": "675885",
        "country_id": "1",
        "user_id": "3871",
        "features": "Samsung Exynos",
        "status": "Disable",
        "latitude": "30.951329",
        "longitude": "76.514127"
    },
    {
        "title": "Apple iPhone X",
        "description": "A brand new, sealed Lilac Purple Verizon Global Unlocked Galaxy S9 by Samsung. This is an upgrade. Clean ESN and activation ready.",
        "address_line_1": "House no. 12, Fayzabad",
        "address_line_2": "House no. 12, Fayzabad",
        "city": "Fayzabad",
        "state_id": "3901",
        "zipcode": "675885",
        "country_id": "1",
        "user_id": "3871",
        "features": "Samsung Exynos",
        "status": "Disable",
        "latitude": "30.951329",
        "longitude": "76.514127"
    },
    {
        "title": "Apple iPhone X",
        "description": "A brand new, sealed Lilac Purple Verizon Global Unlocked Galaxy S9 by Samsung. This is an upgrade. Clean ESN and activation ready.",
        "address_line_1": "House no. 12, Rāghistān",
        "address_line_2": "House no. 12, Rāghistān",
        "city": "Rāghistān",
        "state_id": "3901",
        "zipcode": "675885",
        "country_id": "1",
        "user_id": "3871",
        "features": "Samsung Exynos",
        "status": "Disable",
        "latitude": "30.951329",
        "longitude": "76.514127"
    },
    {
        "title": "Apple iPhone X",
        "description": "A brand new, sealed Lilac Purple Verizon Global Unlocked Galaxy S9 by Samsung. This is an upgrade. Clean ESN and activation ready.",
        "address_line_1": "House no. 12, Fayzabad",
        "address_line_2": "House no. 12, Fayzabad",
        "city": "Fayzabad",
        "state_id": "3901",
        "zipcode": "675885",
        "country_id": "1",
        "user_id": "3871",
        "features": "Samsung Exynos",
        "status": "Disable",
        "latitude": "30.951329",
        "longitude": "76.514127"
    },
    {
        "title": "Huawei Elate",
        "description": "A brand new, sealed Lilac Purple Verizon Global Unlocked Galaxy S9 by Samsung. This is an upgrade. Clean ESN and activation ready.",
        "address_line_1": "House no. 12, Panjāb",
        "address_line_2": "House no. 12, Panjāb",
        "city": "Panjāb",
        "state_id": "3901",
        "zipcode": "675885",
        "country_id": "1",
        "user_id": "3871",
        "features": "Samsung Exynos",
        "status": "Disable",
        "latitude": "30.951329",
        "longitude": "76.514127"
    },
    {
        "title": "Apple iPhone X",
        "description": "A brand new, sealed Lilac Purple Verizon Global Unlocked Galaxy S9 by Samsung. This is an upgrade. Clean ESN and activation ready.",
        "address_line_1": "House no. 12, Fayzabad",
        "address_line_2": "House no. 12, Fayzabad",
        "city": "Fayzabad",
        "state_id": "3901",
        "zipcode": "675885",
        "country_id": "1",
        "user_id": "3871",
        "features": "Samsung Exynos",
        "status": "Disable",
        "latitude": "30.951329",
        "longitude": "76.514127"
    },
    {
        "title": "LG V10 H900",
        "description": "A brand new, sealed Lilac Purple Verizon Global Unlocked Galaxy S9 by Samsung. This is an upgrade. Clean ESN and activation ready.",
        "address_line_1": "House no. 12, Panjāb",
        "address_line_2": "House no. 12, Panjāb",
        "city": "Panjāb",
        "state_id": "3901",
        "zipcode": "675885",
        "country_id": "1",
        "user_id": "3871",
        "features": "Samsung Exynos",
        "status": "Disable",
        "latitude": "30.951329",
        "longitude": "76.514127"
    },
    {
        "title": " Google Pixel 2 XL",
        "description": "A brand new, sealed Lilac Purple Verizon Global Unlocked Galaxy S9 by Samsung. This is an upgrade. Clean ESN and activation ready.",
        "address_line_1": "House no. 12, Fayzabad",
        "address_line_2": "House no. 12, Fayzabad",
        "city": "Fayzabad",
        "state_id": "3901",
        "zipcode": "675885",
        "country_id": "1",
        "user_id": "3871",
        "features": "Samsung Exynos",
        "status": "Disable",
        "latitude": "30.951329",
        "longitude": "76.514127"
    },
    {
        "title": "Apple iPhone X",
        "description": "A brand new, sealed Lilac Purple Verizon Global Unlocked Galaxy S9 by Samsung. This is an upgrade. Clean ESN and activation ready.",
        "address_line_1": "House no. 12, Rāghistān",
        "address_line_2": "House no. 12, Rāghistān",
        "city": "Rāghistān",
        "state_id": "3901",
        "zipcode": "675885",
        "country_id": "1",
        "user_id": "3871",
        "features": "Samsung Exynos",
        "status": "Disable",
        "latitude": "30.951329",
        "longitude": "76.514127"
    }
]
